{
  "type": "FeatureCollection",
  "features": [
    
		{
			"geometry": {
		    	"type": "Point",
	       		"coordinates": [
	       			7.2706853,
	       			43.7186366]
	       	},
			"type": "Feature",
     		"properties": {
				"category": "yoga",
				"name": "Kes Cardoso: Yoga & Sound",
				"services": "Balanced Hatha Flow, Kundalini, Yin",
				"website": "http://www.kescardoso.com"
			}
		},
		
		{
			"geometry": {
		    	"type": "Point",
	       		"coordinates": [
	       			7.0463002,
	       			43.6227815]
	       	},
			"type": "Feature",
     		"properties": {
				"category": "yoga",
				"name": "Eva Luna",
				"services": "Ashtanga, Hatha",
				"website": "http://facebook.com"
			}
		},
		
		{
			"geometry": {
		    	"type": "Point",
	       		"coordinates": [
	       			7.2571126,
	       			43.6984938]
			},
			"type": "Feature",
     		"properties": {
				"category": "yoga",
				"name": "PepitaYoga",
				"services": "HotYoga, Kundalini, PowerYoga, Hatha Flow, Yin, AcroYoga, Pilates",
				"website": "http://facebook.com"
			}
		},
		
		{	
			"geometry": {
		    	"type": "Point",
	       		"coordinates": [
	       			7.2487013,
	       			43.6972061]
			},
			"type": "Feature",
     		"properties": {
				"category": "massage",
				"name": "Bodywork",
				"services": "Shiatsu",
				"website": "http://facebook.com" 
			}
		},
		
		{
			"geometry": {
		    	"type": "Point",
	       		"coordinates": [
	       			7.2706853,
	       			43.7186366]
			},
			"type": "Feature",
     		"properties": {
				"category": "massage",
				"name": "Kes Cardoso",
				"services": "Sound Therapy, Sound Massage",
				"website": "http://www.kescardoso.com"
			}
		},
		
		{
			"geometry": {
		    	"type": "Point",
	       		"coordinates": [
					7.2571126,
					43.6984938]
			},
			"type": "Feature",
     		"properties": {
				"category": "massage",
				"name": "Pepita Yoga",
				"services": "Shiatsu, Sound Therapy, Aromatherapy",
				"website": "http://facebook.com"
			}
		}
   ]
}